City_ID,City,Lat,Lng,Max Temp,Humidity,Cloudiness,Wind Speed,Country,Date
0,bredasdorp,-34.5322,20.0403,293.26,76,10,9.2,ZA,1679759233
1,punta arenas,-53.15,-70.9167,284.21,54,40,14.92,CL,1679759415
2,kavaratti,10.5669,72.642,300.93,70,91,4.5,IN,1679759416
3,torit,4.4133,32.5678,304.57,37,88,2.85,SS,1679759417
4,pecos,31.4229,-103.4932,288.84,20,0,4.12,US,1679759418
5,yellowknife,62.456,-114.3525,248.46,64,40,3.6,CA,1679759407
6,ixtapa,20.7,-105.2,292.72,68,20,3.09,MX,1679759419
7,ushuaia,-54.8,-68.3,282.94,92,93,2.32,AR,1679759266
8,rikitea,-23.1203,-134.9692,297.6,86,100,4.6,PF,1679759421
9,atuona,-9.8,-139.0333,300.08,75,7,6.62,PF,1679759422
10,nemuro,43.3236,145.575,273.54,83,31,5.67,JP,1679759422
11,zhangzhou,24.5133,117.6556,289.11,96,100,0.78,CN,1679759423
12,caibarien,22.5206,-79.4669,301.77,57,0,4.93,CU,1679759424
13,busselton,-33.65,115.3333,291.78,78,96,6.34,AU,1679759424
14,cayenne,4.9333,-52.3333,303.17,66,75,5.14,GF,1679759425
15,walvis bay,-22.9575,14.5053,298.68,50,0,8.75,NA,1679759426
16,clarksburg,39.2807,-80.3445,294.85,69,100,4.12,US,1679759129
17,fort nelson,58.8053,-122.7002,271.45,95,75,1.03,CA,1679759427
18,gobabis,-22.45,18.9667,301.78,23,38,4.03,NA,1679759428
19,la chapelle-sur-erdre,47.2958,-1.5531,287.0,73,75,5.66,FR,1679759428
20,dikson,73.5069,80.5464,252.9,99,100,3.43,RU,1679759320
21,talnakh,69.4865,88.3972,256.22,91,100,3.03,RU,1679759429
22,kapaa,22.0752,-159.319,297.33,90,75,4.63,US,1679759430
23,bluff,-46.6,168.3333,287.48,66,99,11.64,NZ,1679759430
24,tagab,34.855,69.6492,282.98,85,73,1.33,AF,1679759431
25,dingle,10.9995,122.6711,298.25,86,37,3.47,PH,1679759432
26,tuatapere,-46.1333,167.6833,281.99,88,86,2.18,NZ,1679759433
27,katsuura,35.1333,140.3,287.42,83,100,5.37,JP,1679759434
28,cape town,-33.9258,18.4232,294.47,88,75,6.69,ZA,1679759160
29,bengkulu,-3.8004,102.2655,298.84,88,100,2.63,ID,1679759384
30,vaini,-21.2,-175.2,299.24,94,75,3.6,TO,1679759435
31,kodiak,57.79,-152.4072,276.88,65,75,5.14,US,1679759436
32,bogande,12.9714,-0.1436,311.33,5,66,0.83,BF,1679759437
33,port-gentil,-0.7193,8.7815,303.13,74,40,6.69,GA,1679759437
34,alekseyevsk,57.8406,108.3492,269.32,97,100,2.31,RU,1679759438
35,arraial do cabo,-22.9661,-42.0278,303.13,78,20,6.69,BR,1679759438
36,northam,51.0333,-4.2167,285.16,82,100,6.16,GB,1679759439
37,hilo,19.7297,-155.09,295.53,83,40,3.09,US,1679759439
38,makat,47.6469,53.3463,289.5,34,89,1.14,KZ,1679759439
39,pisco,-13.7,-76.2167,299.83,69,0,3.09,PE,1679759439
40,puerto ayora,-0.7393,-90.3518,303.13,84,42,2.68,EC,1679759440
41,lagoa,39.05,-27.9833,287.14,77,65,8.78,PT,1679759440
42,hobart,-42.8794,147.3294,284.29,84,40,4.12,AU,1679759440
43,tiksi,71.6872,128.8694,250.6,100,37,3.38,RU,1679759441
44,juneau,58.3019,-134.4197,276.05,95,100,2.57,US,1679759357
45,christchurch,-43.5333,172.6333,287.54,88,75,3.6,NZ,1679759437
46,junin,-34.5838,-60.9433,299.2,62,3,3.3,AR,1679759408
47,vila franca do campo,37.7167,-25.4333,288.38,86,100,4.19,PT,1679759442
48,qaanaaq,77.484,-69.3632,251.9,68,7,2.21,GL,1679759442
49,namwala,-15.7504,26.4384,296.44,68,79,2.3,ZM,1679759442
50,ribeira grande,38.5167,-28.7,288.58,77,75,9.83,PT,1679759443
51,adrar,20.5022,-10.0711,306.44,8,79,5.37,MR,1679759443
52,kupang,-10.1667,123.5833,298.52,87,65,2.42,ID,1679759444
53,ballina,-28.8667,153.5667,293.58,91,89,1.13,AU,1679759164
54,port alfred,-33.5906,26.891,294.36,85,79,3.97,ZA,1679759444
55,morros,-9.4467,-46.3003,303.89,48,72,2.24,BR,1679759444
56,provideniya,64.3833,-173.3,262.13,96,100,6.54,RU,1679759445
57,pak chong,14.708,101.4161,300.43,58,4,2.19,TH,1679759445
58,albany,42.6001,-73.9662,276.44,86,100,3.13,US,1679759445
59,maniitsoq,65.4167,-52.9,262.78,75,41,2.06,GL,1679759446
60,sitka,57.0531,-135.33,275.09,93,100,2.57,US,1679759446
61,evensk,61.95,159.2333,255.88,80,100,3.75,RU,1679759446
62,antalaha,-14.9003,50.2788,297.98,90,100,3.51,MG,1679759447
63,nalut,30.3333,10.85,298.08,13,0,4.82,LY,1679759447
64,berbera,10.4396,45.0143,301.92,75,22,4.36,SO,1679759448
65,port-cartier,50.0334,-66.8654,274.27,83,11,0.62,CA,1679759337
66,finnsnes,69.2296,17.9811,269.49,85,47,2.39,NO,1679759174
67,chuy,-33.6971,-53.4616,293.46,95,100,3.69,UY,1679759448
68,torbay,47.6666,-52.7314,274.41,96,100,16.54,CA,1679759448
69,prince rupert,54.3161,-130.3201,276.98,93,75,3.6,CA,1679759209
70,mataura,-46.1927,168.8643,287.3,77,99,1.98,NZ,1679759449
71,spirit river,55.7833,-118.8361,268.39,89,98,1.86,CA,1679759449
72,buala,-8.145,159.5921,298.7,76,67,1.04,SB,1679759405
73,cidreira,-30.1811,-50.2056,299.16,71,67,7.16,BR,1679759450
74,thinadhoo,0.5333,72.9333,300.81,77,11,2.13,MV,1679759450
75,tuktoyaktuk,69.4541,-133.0374,259.15,85,75,4.63,CA,1679759450
76,lavrentiya,65.5833,-171.0,260.31,96,100,5.0,RU,1679759451
77,smithers,54.7804,-127.1743,271.33,74,40,2.06,CA,1679759451
78,balaipungut,1.05,101.2833,296.43,98,99,3.65,ID,1679759451
79,mount gambier,-37.8333,140.7667,283.15,87,93,2.53,AU,1679759452
80,mar del plata,-38.0023,-57.5575,299.17,79,40,2.57,AR,1679759196
81,tacuati,-23.45,-56.5833,306.65,46,58,2.34,PY,1679759452
82,tucuma,-0.1833,-50.05,301.76,68,51,1.51,BR,1679759452
83,khatanga,71.9667,102.5,258.21,93,100,6.19,RU,1679759453
84,new norfolk,-42.7826,147.0587,284.1,67,7,1.13,AU,1679759453
85,hermanus,-34.4187,19.2345,291.93,88,61,7.66,ZA,1679759453
86,fukue,32.6881,128.8419,286.12,87,100,8.34,JP,1679759454
87,barrow,71.2906,-156.7887,256.16,78,100,9.77,US,1679759454
88,jamestown,42.097,-79.2353,280.77,98,100,9.26,US,1679759455
89,awjilah,29.1081,21.2869,295.6,28,0,7.63,LY,1679759455
90,mehamn,71.0357,27.8492,265.1,67,20,3.6,NO,1679759455
91,east london,-33.0153,27.9116,293.67,83,0,4.12,ZA,1679759455
92,cherskiy,68.75,161.3,250.63,86,100,1.59,RU,1679759456
93,rocha,-34.4833,-54.3333,292.86,97,100,4.45,UY,1679759456
94,waitati,-45.75,170.5667,285.82,74,100,1.38,NZ,1679759456
95,roma,43.2128,-75.4557,276.53,77,100,5.66,US,1679759283
96,buin,-33.7333,-70.75,304.33,10,0,2.3,CL,1679759457
97,avarua,-21.2078,-159.775,298.18,100,40,0.51,CK,1679759457
98,pemangkat,1.1667,108.9667,297.89,84,100,0.58,ID,1679759458
99,coihaique,-45.5752,-72.0662,285.12,50,0,1.54,CL,1679759459
100,caravelas,-17.7125,-39.2481,303.07,59,12,3.75,BR,1679759459
101,college,64.8569,-147.8028,257.36,75,40,0.0,US,1679759294
102,carnarvon,-24.8667,113.6333,296.93,79,4,8.4,AU,1679759460
103,airai,-8.9266,125.4092,288.91,95,87,0.38,TL,1679759461
104,arlit,18.7369,7.3853,305.7,8,1,8.01,NE,1679759461
105,okoneshnikovo,54.8377,75.0834,274.43,99,100,6.54,RU,1679759461
106,broken hill,-31.95,141.4333,290.59,35,99,4.02,AU,1679759462
107,lompoc,34.6391,-120.4579,283.58,70,0,9.83,US,1679759277
108,socorro,31.6546,-106.3033,284.44,34,0,4.12,US,1679759463
109,mahibadhoo,3.7833,72.9667,301.11,76,9,3.67,MV,1679759463
110,saldanha,-33.0117,17.9442,294.18,88,38,4.32,ZA,1679759463
111,upernavik,72.7868,-56.1549,250.03,80,23,1.46,GL,1679759464
112,berdigestyakh,62.0989,126.6992,267.66,95,100,3.9,RU,1679759465
113,kieta,-6.2167,155.6333,298.51,79,99,1.51,PG,1679759466
114,chiang klang,19.2938,100.8617,299.68,33,15,0.64,TH,1679759466
115,hare bay,48.8499,-54.0148,276.79,90,91,8.27,CA,1679759466
116,georgetown,5.4112,100.3354,300.11,94,40,0.51,MY,1679759414
117,narsaq,60.9167,-46.05,273.27,54,0,1.27,GL,1679759467
118,berlevag,70.8578,29.0864,265.12,67,40,4.63,NO,1679759467
119,karratha,-20.7377,116.8463,302.29,69,82,2.33,AU,1679759468
120,viedma,-40.8135,-62.9967,292.28,47,1,8.96,AR,1679759187
121,tasiilaq,65.6145,-37.6368,263.24,89,100,3.44,GL,1679759469
122,lebu,-37.6167,-73.65,288.55,69,0,8.93,CL,1679759469
123,makakilo city,21.3469,-158.0858,295.75,80,0,3.6,US,1679759470
124,ponta do sol,32.6667,-17.1,298.55,65,97,2.45,PT,1679759471
125,bhongir,17.5108,78.8889,301.76,69,73,5.17,IN,1679759471
126,necochea,-38.5473,-58.7368,296.35,65,13,6.69,AR,1679759472
127,susurluk,39.9136,28.1578,294.42,66,0,1.08,TR,1679759472
128,chapais,49.7834,-74.8492,271.03,83,37,3.62,CA,1679759472
129,hofn,64.2539,-15.2082,272.45,58,46,3.97,IS,1679759473
130,butaritari,3.0707,172.7902,300.02,82,50,6.94,KI,1679759474
131,salo,45.6086,10.531,294.44,46,16,4.83,IT,1679759475
132,singaraja,-8.112,115.0882,300.0,82,100,0.69,ID,1679759476
133,kutum,14.2,24.6667,301.96,16,25,6.7,SD,1679759476
134,hithadhoo,-0.6,73.0833,300.91,77,19,3.34,MV,1679759476
135,bathsheba,13.2167,-59.5167,302.49,58,40,10.8,BB,1679759477
136,bima,-8.4667,118.7167,297.9,93,98,0.83,ID,1679759477
137,yerbogachen,61.2767,108.0108,267.59,93,97,4.17,RU,1679759478
138,faanui,-16.4833,-151.75,300.74,73,100,3.81,PF,1679759479
139,auki,-8.7676,160.7034,298.09,81,100,0.72,SB,1679759479
140,superior,46.7208,-92.1041,278.0,46,0,4.12,US,1679759340
141,kyshtovka,56.555,76.6271,274.27,96,100,5.07,RU,1679759480
142,biak,-0.9131,122.8766,297.98,85,99,0.81,ID,1679759480
143,esso,55.9333,158.7,251.99,90,80,5.47,RU,1679759481
144,znamenskoye,57.1281,73.8282,274.71,97,100,4.31,RU,1679759481
145,braintree,51.8782,0.5529,287.8,63,17,3.58,GB,1679759482
146,port hardy,50.6996,-127.4199,278.15,100,100,3.6,CA,1679759483
147,batemans bay,-35.7167,150.1833,292.09,93,85,1.31,AU,1679759483
148,tallahassee,30.4383,-84.2807,298.63,89,100,4.63,US,1679759460
149,nioro,13.35,-15.75,311.46,18,0,2.13,GM,1679759484
150,shenjiamen,29.9576,122.298,281.46,82,100,7.32,CN,1679759485
151,urubamba,-13.3047,-72.1158,289.65,74,100,1.86,PE,1679759485
152,patiya,22.2931,91.9762,300.12,74,0,3.09,BD,1679759486
153,vostok,46.4856,135.8833,264.18,92,48,2.06,RU,1679759486
154,onokhoy,51.932,108.0747,269.01,87,100,1.5,RU,1679759486
155,mahebourg,-20.4081,57.7,300.31,78,75,1.54,MU,1679759487
156,olafsvik,64.8945,-23.7142,271.29,63,79,5.95,IS,1679759488
157,linjiang,41.8069,126.9078,271.41,39,90,1.1,CN,1679759488
158,mikhaylovka,50.06,43.2379,288.59,66,89,1.16,RU,1679759489
159,saint anthony,45.0205,-93.218,277.12,62,100,3.6,US,1679759489
160,udachnyy,66.4167,112.4,252.08,100,37,2.62,RU,1679759490
161,lorengau,-2.0226,147.2712,300.31,71,100,2.03,PG,1679759491
162,portoferraio,42.8115,10.3146,292.02,51,0,4.63,IT,1679759491
163,saskylakh,71.9167,114.0833,256.09,95,97,3.3,RU,1679759492
164,anadyr,64.75,177.4833,272.43,92,100,13.0,RU,1679759493
165,altea,38.5989,-0.0514,295.03,63,59,2.24,ES,1679759493
166,waingapu,-9.6567,120.2641,299.15,84,15,1.5,ID,1679759494
167,nuuk,64.1835,-51.7216,267.49,79,20,6.17,GL,1679759494
168,poum,-20.2333,164.0167,299.38,79,100,3.37,NC,1679759468
169,bara,10.3744,10.7288,308.67,23,82,2.96,NG,1679759495
170,nizwa,22.9333,57.5333,298.8,27,4,1.09,OM,1679759495
171,ourossogui,15.6064,-13.3211,314.15,14,0,3.09,SN,1679759496
172,muros,42.7762,-9.0603,288.2,87,100,10.15,ES,1679759496
173,saint george,37.1041,-113.5841,277.83,59,0,1.79,US,1679759224
174,pineville,31.3224,-92.4343,298.64,64,0,4.12,US,1679759497
175,riyadh,24.6877,46.7219,302.23,17,79,8.05,SA,1679759400
176,pacific grove,36.6177,-121.9166,281.85,78,20,5.81,US,1679759310
177,ofunato,39.0717,141.7167,278.7,87,99,0.79,JP,1679759497
178,nikolskoye,59.7035,30.7861,276.09,84,100,4.77,RU,1679759498
179,saint-francois,46.4154,3.9054,286.84,58,0,3.6,FR,1679759478
180,chokurdakh,70.6333,147.9167,238.58,100,10,1.43,RU,1679759498
181,esperance,-33.8667,121.9,292.05,92,98,6.09,AU,1679759499
182,champerico,14.3,-91.9167,301.45,61,90,0.98,GT,1679759499
183,ahipara,-35.1667,173.1667,287.28,87,11,1.63,NZ,1679759214
184,sayyan,15.1718,44.3244,291.97,45,66,4.23,YE,1679759500
185,yulara,-25.2406,130.9889,296.6,22,2,1.98,AU,1679759500
186,pontian kecil,1.4801,103.3899,299.44,91,100,3.39,MY,1679759500
187,qinhuangdao,39.9317,119.5883,276.11,36,0,2.48,CN,1679759501
188,abomsa,9.9833,39.9833,296.72,61,98,2.83,ET,1679759501
189,bairiki,1.3292,172.9752,300.15,89,75,3.09,KI,1679759501
190,at-bashi,41.1702,75.8106,268.48,80,6,1.55,KG,1679759502
191,bambous virieux,-20.3428,57.7575,300.29,78,75,1.54,MU,1679759502
192,roblin,51.23,-101.3565,264.41,89,52,2.22,CA,1679759503
193,thompson,55.7435,-97.8558,255.24,85,20,2.06,CA,1679759503
194,asau,46.4333,26.4,289.66,66,95,7.31,RO,1679759503
195,acatlan,20.15,-98.45,296.06,26,31,2.44,MX,1679759504
196,erzurum,40.0,41.5,276.97,93,100,2.09,TR,1679759504
197,lumby,50.2498,-118.969,275.67,85,99,0.51,CA,1679759505
198,kaitangata,-46.2817,169.8464,284.35,79,93,2.48,NZ,1679759318
199,nabire,-3.3667,135.4833,297.53,92,100,0.91,ID,1679759506
200,san patricio,28.017,-97.5169,299.91,22,0,6.2,US,1679759507
201,sorland,67.667,12.6934,272.07,55,100,8.76,NO,1679759507
202,concarneau,47.875,-3.9225,286.31,81,98,7.13,FR,1679759507
203,antofagasta,-23.65,-70.4,295.75,62,2,3.49,CL,1679759508
204,sohag,26.557,31.6948,296.31,39,64,10.42,EG,1679759508
205,umea,63.8284,20.2597,271.11,37,0,1.54,SE,1679759267
206,san juan,-31.5375,-68.5364,300.95,48,5,3.87,AR,1679759509
207,alofi,-19.0595,-169.9187,298.09,100,100,1.54,NU,1679759509
208,lucapa,-8.4192,20.7447,294.28,88,100,1.22,AO,1679759509
209,elizabethtown,37.694,-85.8591,291.35,62,75,10.8,US,1679759510
210,laguna,38.421,-121.4238,282.64,57,0,5.66,US,1679759368
211,carutapera,-1.195,-46.02,302.69,63,11,2.35,BR,1679759510
212,sao jose da coroa grande,-8.8978,-35.1478,301.87,69,44,3.89,BR,1679759511
213,bilibino,68.0546,166.4372,253.05,96,100,3.36,RU,1679759511
214,clyde river,70.4692,-68.5914,246.28,76,100,0.0,CA,1679759511
215,dhidhdhoo,6.8833,73.1,301.41,72,68,3.71,MV,1679759512
216,victoria,22.2855,114.1577,294.93,95,99,0.45,HK,1679759258
217,lieksa,63.3167,30.0167,268.63,89,100,4.33,FI,1679759512
218,husavik,66.0449,-17.3389,269.45,89,98,3.61,IS,1679759512
219,pa daet,19.5049,99.9924,303.34,28,33,0.86,TH,1679759513
220,oktyabrskoye,43.0645,44.7417,286.23,54,75,4.0,RU,1679759513
221,jiuquan,39.7432,98.5174,279.26,21,1,1.68,CN,1679759513
222,sept-iles,50.2001,-66.3821,274.44,60,40,2.06,CA,1679759378
223,emporia,38.4039,-96.1817,286.21,71,0,4.63,US,1679759514
224,dali,25.7,100.1833,283.6,57,0,2.65,CN,1679759514
225,bubaque,11.2833,-15.8333,299.01,68,5,7.62,GW,1679759515
226,nizhniy tsasuchey,50.5167,115.1333,260.29,92,28,2.09,RU,1679759515
227,port elizabeth,-33.918,25.5701,296.31,63,0,5.14,ZA,1679759396
228,igurusi,-8.85,33.85,292.25,94,84,1.24,TZ,1679759516
229,namatanai,-3.6667,152.4333,298.98,80,99,0.91,PG,1679759516
230,tabas,33.5959,56.9244,295.27,35,84,1.03,IR,1679759516
231,council bluffs,41.2619,-95.8608,284.49,57,40,2.57,US,1679759495
232,paamiut,61.994,-49.6678,267.46,67,16,3.08,GL,1679759517
233,nanortalik,60.1432,-45.2371,270.82,78,30,1.26,GL,1679759517
234,homer,59.6425,-151.5483,274.08,62,0,3.6,US,1679759517
235,porvoo,60.3923,25.6651,276.61,90,97,0.9,FI,1679759518
236,general pico,-35.6566,-63.7568,298.79,56,60,3.47,AR,1679759518
237,balkanabat,39.5108,54.3671,292.49,37,99,1.93,TM,1679759518
238,la ronge,55.1001,-105.2842,261.29,52,75,0.0,CA,1679759519
239,castro,-24.7911,-50.0119,298.9,62,66,2.73,BR,1679759519
240,ode,7.7899,5.7117,303.81,44,95,2.52,NG,1679759519
241,fare,-16.7,-151.0167,300.9,71,90,3.6,PF,1679759520
242,cam ranh,11.9214,109.1591,299.13,78,20,1.03,VN,1679759520
243,gamba,-2.65,10.0,301.23,71,45,3.77,GA,1679759395
244,solnechnyy,50.7214,136.6319,263.6,94,22,1.75,RU,1679759521
245,constitucion,-35.3333,-72.4167,294.96,49,0,6.27,CL,1679759521
246,bakchar,57.0186,82.0711,274.06,95,100,4.48,RU,1679759522
247,fairbanks,64.8378,-147.7164,257.37,76,0,0.0,US,1679759454
248,rundu,-17.9333,19.7667,295.39,72,100,1.7,NA,1679759524
249,kruisfontein,-34.0033,24.7314,294.48,55,0,1.46,ZA,1679759525
250,lugo,43.0,-7.5,286.19,89,100,4.93,ES,1679759525
251,huron,41.1501,-82.5499,287.6,90,88,11.82,US,1679759526
252,koson,39.0375,65.585,293.33,29,22,3.93,UZ,1679759527
253,jatiroto,-7.8833,111.1167,296.9,93,100,0.63,ID,1679759527
254,fortuna,40.5982,-124.1573,276.85,98,100,0.45,US,1679759324
255,pitimbu,-7.4706,-34.8086,303.48,69,36,4.14,BR,1679759283
256,vila velha,-20.3297,-40.2925,306.45,54,0,4.63,BR,1679759528
257,oranjemund,-28.55,16.4333,293.0,83,2,4.13,NA,1679759529
258,valparaiso,-33.0393,-71.6273,297.28,50,0,4.12,CL,1679759472
259,inta,66.0317,60.1659,263.22,90,82,3.6,RU,1679759530
260,beringovskiy,63.05,179.3167,273.67,97,100,9.77,RU,1679759530
261,havre-saint-pierre,50.2334,-63.5986,274.35,60,0,3.09,CA,1679759531
262,ise,34.4833,136.7,284.77,92,100,2.91,JP,1679759532
263,ilebo,-4.3167,20.5833,299.29,77,98,1.07,CD,1679759533
264,souillac,-20.5167,57.5167,300.36,78,75,1.54,MU,1679759533
265,klaksvik,62.2266,-6.589,273.66,65,100,9.73,FO,1679759534
266,gallup,35.5281,-108.7426,271.06,54,0,2.57,US,1679759379
267,kangaatsiaq,68.3065,-53.4641,255.59,93,79,2.46,GL,1679759535
268,caramay,10.1815,119.236,298.82,87,39,1.67,PH,1679759535
269,sao filipe,14.8961,-24.4956,294.65,71,49,3.4,CV,1679759536
270,touros,-5.1989,-35.4608,303.24,61,47,3.94,BR,1679759536
271,deqing,30.5448,119.9599,279.73,89,100,1.11,CN,1679759537
272,half moon bay,37.4636,-122.4286,282.21,70,0,5.66,US,1679759245
273,guiratinga,-16.3494,-53.7583,303.14,53,24,2.81,BR,1679759537
274,kysyl-syr,63.8986,122.7617,269.39,96,100,3.4,RU,1679759539
275,wolbrom,50.3796,19.7583,286.45,61,92,6.15,PL,1679759539
276,port macquarie,-31.4333,152.9167,291.42,82,90,0.67,AU,1679759540
277,charlestown,-32.95,151.6667,295.22,86,54,1.79,AU,1679759540
278,brae,60.3964,-1.353,277.04,59,89,8.1,GB,1679759541
279,korla,41.7597,86.1469,284.84,24,1,0.83,CN,1679759541
280,hasaki,35.7333,140.8333,283.37,77,100,5.17,JP,1679759542
281,norman wells,65.282,-126.8329,264.17,67,75,1.03,CA,1679759542
282,dicabisagan,17.0818,122.4157,298.5,87,53,2.24,PH,1679759543
283,safidon,29.4167,76.6667,295.3,42,71,2.14,IN,1679759543
284,severo-kurilsk,50.6789,156.125,269.13,71,93,13.94,RU,1679759544
285,ararat,39.8317,44.7049,288.34,39,100,2.27,AM,1679759544
286,beloha,-25.1667,45.05,295.47,78,40,8.79,MG,1679759545
287,acarau,-2.8856,-40.12,301.3,73,57,2.78,BR,1679759530
288,wenzhou,27.9994,120.6668,284.2,91,100,0.12,CN,1679759546
289,molina,-35.1167,-71.2833,292.0,48,0,3.6,CL,1679759547
290,san ramon,37.7799,-121.978,281.79,78,0,1.54,US,1679759441
291,lerwick,60.1545,-1.1494,277.15,62,83,9.15,GB,1679759335
292,grindavik,63.8424,-22.4338,275.12,60,0,5.14,IS,1679759548
293,pevek,69.7008,170.3133,254.07,89,100,1.74,RU,1679759549
294,massakory,12.996,15.7293,307.74,9,100,5.43,TD,1679759549
295,saint-philippe,-21.3585,55.7679,298.92,85,64,3.69,RE,1679759550
296,hameenlinna,60.996,24.4643,273.79,87,100,1.68,FI,1679759550
297,saint-louis,16.3333,-15.0,310.87,12,34,5.48,SN,1679759551
298,erenhot,43.6475,111.9767,270.45,22,8,3.22,CN,1679759552
299,rincon,32.296,-81.2354,299.77,65,40,6.17,US,1679759341
300,kyabram,-36.3167,145.05,285.86,73,94,4.28,AU,1679759553
301,vangaindrano,-23.35,47.6,296.13,88,75,2.5,MG,1679759553
302,alta floresta,-9.8756,-56.0861,304.05,62,20,1.03,BR,1679759471
303,gloggnitz,47.6749,15.9389,287.71,63,68,4.79,AT,1679759554
304,umm kaddadah,13.6017,26.6876,305.35,13,44,6.21,SD,1679759555
305,wanaka,-44.7,169.15,282.65,93,13,0.89,NZ,1679759555
306,cauquenes,-35.9671,-72.3225,300.53,16,0,5.25,CL,1679759555
307,avera,33.194,-82.5271,287.88,73,100,6.44,US,1679759556
308,port lincoln,-34.7333,135.8667,291.31,69,100,6.21,AU,1679759557
309,moron,-34.6534,-58.6198,300.94,64,43,3.98,AR,1679759557
310,flin flon,54.7682,-101.865,255.06,71,0,0.0,CA,1679759554
311,dunedin,-45.8742,170.5036,285.82,74,100,4.02,NZ,1679759558
312,buritizeiro,-17.3511,-44.9622,307.66,22,0,1.71,BR,1679759558
313,baghdad,33.3406,44.4009,300.1,36,0,3.09,IQ,1679759398
314,borogontsy,62.6683,131.1683,262.73,96,100,2.16,RU,1679759559
315,senekal,-28.3197,27.6208,293.24,58,71,0.69,ZA,1679759559
316,helong,42.5397,128.9972,271.75,49,82,0.48,CN,1679759559
317,bilma,18.6853,12.9164,302.64,10,47,4.91,NE,1679759560
318,takoradi,4.8845,-1.7554,302.42,67,100,3.72,GH,1679759560
319,yangambi,0.8102,24.4336,302.19,49,65,1.64,CD,1679759561
320,mangan,27.5167,88.5333,291.19,83,99,0.45,IN,1679759561
321,boyuibe,-20.4167,-63.2833,301.68,53,55,4.61,BO,1679759562
322,uren,57.4552,45.7852,280.02,97,100,5.37,RU,1679759562
323,saint-pierre,-21.3393,55.4781,298.97,83,40,8.75,RE,1679759562
324,ancud,-41.8697,-73.8203,286.68,53,0,2.0,CL,1679759563
325,karpogory,64.0019,44.4451,274.22,100,100,3.91,RU,1679759563
326,paso de carrasco,-34.8603,-56.0522,294.4,100,100,1.54,UY,1679759563
327,bojnurd,37.4747,57.329,288.12,44,0,4.12,IR,1679759564
328,yishui,35.7847,118.6281,277.53,37,37,2.31,CN,1679759564
329,natal,-5.795,-35.2094,303.51,66,40,5.66,BR,1679759563
330,high level,58.5169,-117.136,264.21,79,75,2.57,CA,1679759407
331,khandyga,62.6667,135.6,247.55,100,98,0.79,RU,1679759565
332,kudahuvadhoo,2.6708,72.8944,300.96,77,2,3.04,MV,1679759565
333,altamont,42.2068,-121.7372,270.25,91,100,2.06,US,1679759565
334,santa maria,-29.6842,-53.8069,295.76,100,75,1.03,BR,1679759549
335,kavieng,-2.5744,150.7967,300.45,74,100,2.38,PG,1679759333
336,saint-joseph,-21.3667,55.6167,298.36,84,64,4.23,RE,1679759566
337,maragogi,-9.0122,-35.2225,302.05,69,52,4.21,BR,1679759566
338,shingu,33.7333,135.9833,287.2,95,100,3.46,JP,1679759567
339,presidencia roque saenz pena,-26.7852,-60.4388,303.95,54,99,3.02,AR,1679759567
340,coquimbo,-29.9533,-71.3436,291.0,88,100,2.57,CL,1679759567
341,mana,5.6592,-53.7767,302.35,59,94,3.31,GF,1679759568
342,mayo,38.8876,-76.5119,282.12,92,100,2.57,US,1679759568
343,camapua,-19.5314,-54.0439,302.62,65,6,2.12,BR,1679759568
344,ous,60.9058,61.5186,272.81,99,88,1.62,RU,1679759569
345,albertville,34.2676,-86.2089,294.67,58,0,4.12,US,1679759569
346,cicero dantas,-10.6,-38.3833,304.0,44,72,2.71,BR,1679759569
347,santiago de cuba,20.0247,-75.8219,301.21,57,20,3.09,CU,1679759570
348,san buenaventura,27.0833,-101.5333,296.19,15,0,2.37,MX,1679759570
349,sao marcos,-28.9711,-51.0681,301.04,63,98,2.82,BR,1679759570
350,hanzhong,33.0728,107.0303,281.91,79,9,0.62,CN,1679759571
351,kiunga,-6.1219,141.2906,295.33,99,73,0.36,PG,1679759571
352,aykhal,66.0,111.5,253.86,100,82,2.83,RU,1679759571
353,sao joao da barra,-21.6403,-41.0511,305.2,67,1,3.46,BR,1679759572
354,san juan bautista,-14.0108,-75.7358,301.05,50,100,0.99,PE,1679759572
355,harper,4.375,-7.7169,302.55,67,84,3.88,LR,1679759572
356,veraval,20.9,70.3667,297.28,59,1,4.88,IN,1679759573
357,green river,41.5286,-109.4662,266.59,76,100,11.13,US,1679759573
358,cabo san lucas,22.8909,-109.9124,294.6,56,69,0.82,MX,1679759573
359,sao felix do xingu,-6.6447,-51.995,303.44,63,97,1.26,BR,1679759574
360,princeton,25.5384,-80.4089,302.6,72,100,5.66,US,1679759474
361,tendukheda,23.4,79.55,301.75,23,39,1.82,IN,1679759574
362,luderitz,-26.6481,15.1594,293.87,74,0,5.24,NA,1679759575
363,taltal,-25.4,-70.4833,295.94,69,3,2.33,CL,1679759575
364,broome,42.2506,-75.833,277.29,84,100,11.32,US,1679759576
365,manggar,-2.8833,108.2667,299.05,81,97,2.95,ID,1679759468
366,el rosario,24.2556,-107.1828,296.61,19,11,2.88,MX,1679759576
367,belyy yar,53.6039,91.3903,274.18,53,0,1.0,RU,1679759577
368,grajau,-5.8194,-46.1386,302.7,67,78,1.44,BR,1679759577
369,kulhudhuffushi,6.6221,73.07,301.33,71,25,3.66,MV,1679759577
370,simao,22.7886,100.9748,290.18,40,3,0.16,CN,1679759578
371,mitsamiouli,-11.3847,43.2844,300.78,79,74,4.29,KM,1679759578
372,longyearbyen,78.2186,15.6401,257.06,55,20,2.57,SJ,1679759579
373,ust-nera,64.5667,143.2,246.15,99,94,2.02,RU,1679759579
374,nandurbar,21.3667,74.25,300.23,23,44,5.2,IN,1679759579
375,kalmunai,7.4167,81.8167,299.71,81,52,2.05,LK,1679759580
376,russell,32.3502,-85.1999,298.75,88,0,0.0,US,1679759412
377,san policarpo,12.1791,125.5072,299.68,85,9,3.81,PH,1679759580
378,siloam springs,36.1881,-94.5405,283.7,81,75,2.06,US,1679759513
379,palmer,42.1584,-72.3287,278.51,64,100,3.13,US,1679759581
380,nauta,-4.5061,-73.5757,303.57,59,95,1.44,PE,1679759581
381,grafton,42.207,-71.6856,278.0,75,100,6.69,US,1679759370
382,turbat,26.0023,63.044,298.25,37,0,4.67,PK,1679759582
383,bosaso,11.2842,49.1816,301.15,79,8,2.11,SO,1679759583
384,zhigansk,66.7697,123.3711,264.76,96,100,4.53,RU,1679759583
385,asyut,27.181,31.1837,297.25,42,91,11.64,EG,1679759584
386,altenholz,54.4,10.1333,282.12,93,100,3.6,DE,1679759584
387,bandarbeyla,9.4942,50.8122,300.8,73,83,4.49,SO,1679759585
388,zhangye,38.9342,100.4517,281.34,22,100,2.15,CN,1679759585
389,ambunti,-4.2365,142.8448,295.78,99,65,0.81,PG,1679759586
390,bharthana,26.7571,79.2248,299.06,24,0,3.63,IN,1679759586
391,koungheul,13.9833,-14.8,312.76,15,0,1.25,SN,1679759587
392,ruston,32.5232,-92.6379,296.25,60,0,2.57,US,1679759587
393,kasiri,8.9412,-13.1148,304.24,49,17,5.57,SL,1679759588
394,port blair,11.6667,92.75,301.17,74,40,1.54,IN,1679759588
395,sao desiderio,-12.3633,-44.9733,305.04,38,73,2.63,BR,1679759590
396,emba,48.8264,58.1442,283.79,42,19,4.18,KZ,1679759590
397,taoudenni,22.6783,-3.9836,306.47,6,22,7.44,ML,1679759590
398,milkovo,54.7167,158.6167,256.05,85,51,2.63,RU,1679759591
399,marzuq,14.4,46.4667,297.62,63,100,3.67,YE,1679759591
400,amahai,-3.3333,128.9167,299.38,85,99,1.26,ID,1679759592
401,kenai,60.5544,-151.2583,265.98,90,0,0.0,US,1679759432
402,aksu,41.1231,80.2644,285.85,18,20,1.41,CN,1679759593
403,loreto,22.2667,-101.9667,294.05,8,64,0.18,MX,1679759593
404,pangnirtung,66.1451,-65.7125,258.15,47,100,0.0,CA,1679759594
405,satuk,41.2263,32.3836,284.6,86,21,1.47,TR,1679759594
406,along,28.1667,94.7667,289.74,94,59,0.84,IN,1679759594
407,pafos,34.7667,32.4167,293.03,68,20,1.54,CY,1679759595
408,novoorsk,51.381,58.9813,278.51,91,98,1.93,RU,1679759596
409,shimoda,34.6667,138.95,283.76,91,100,7.62,JP,1679759597
410,gat,31.61,34.7642,292.53,100,100,7.14,IL,1679759463
411,lisala,2.15,21.5167,299.92,68,92,1.44,CD,1679759598
412,rio gallegos,-51.6226,-69.2181,286.18,35,75,11.32,AR,1679759598
413,namibe,-15.1961,12.1522,298.4,70,100,5.87,AO,1679759599
414,kathu,7.9178,98.3332,301.05,78,12,4.8,TH,1679759599
415,abilene,32.4487,-99.7331,291.03,22,0,2.24,US,1679759600
416,orocue,4.7912,-71.3354,309.18,26,45,4.3,CO,1679759600
417,kitob,39.0843,66.8332,288.97,41,43,1.18,UZ,1679759601
418,rossland,49.0831,-117.8022,269.05,82,100,1.22,CA,1679759601
419,karaton,-6.3424,106.1045,297.09,94,100,0.55,ID,1679759602
420,naica,27.85,-105.4833,287.53,19,0,2.47,MX,1679759603
421,cap malheureux,-19.9842,57.6142,298.97,75,28,0.89,MU,1679759603
422,verkhoyansk,67.5447,133.385,255.17,86,100,1.6,RU,1679759604
423,toyota,35.0833,137.15,285.68,46,100,0.79,JP,1679759605
424,iqaluit,63.7506,-68.5145,257.0,84,100,0.0,CA,1679759606
425,chara,56.9064,118.2631,257.99,66,82,1.06,RU,1679759607
426,salina,38.8403,-97.6114,282.6,81,0,3.09,US,1679759607
427,raudeberg,61.9875,5.1352,277.52,58,0,12.92,NO,1679759608
428,verdun,49.25,5.3333,286.02,76,64,7.76,FR,1679759609
429,bang saphan,11.2126,99.5117,298.31,81,67,1.83,TH,1679759609
430,nakhon thai,17.1006,100.8374,301.43,34,1,0.2,TH,1679759610
431,sur,22.5667,59.5289,297.87,62,0,2.65,OM,1679759611
432,harlingen,26.1906,-97.6961,300.2,81,100,6.17,US,1679759320
433,hambantota,6.1241,81.1185,299.34,100,20,1.03,LK,1679759611
434,bonthe,7.5264,-12.505,304.82,54,45,5.55,SL,1679759612
435,najran,17.4924,44.1277,304.51,23,72,7.73,SA,1679759612
436,khandbari,27.3747,87.2039,291.97,57,97,1.16,NP,1679759613
437,bakhmach,51.1808,32.7569,288.01,56,99,6.04,UA,1679759613
438,mahanoro,-19.9,48.8,297.31,88,14,3.32,MG,1679759614
439,grass valley,39.2191,-121.0611,277.36,75,0,1.34,US,1679759614
440,lithakia,37.7167,20.8333,291.75,63,20,2.06,GR,1679759615
441,tulun,54.5611,100.5792,269.57,96,100,1.18,RU,1679759615
442,linqiong,30.4159,103.4609,285.05,77,77,0.34,CN,1679759616
443,tecoanapa,16.5167,-98.75,300.64,59,45,2.1,MX,1679759616
444,pingliang,35.5392,106.6861,280.8,63,96,2.12,CN,1679759617
445,nome,64.5011,-165.4064,259.19,85,100,10.8,US,1679759586
446,sazonovo,59.0919,35.2268,276.9,86,100,6.25,RU,1679759617
447,codrington,-38.2667,141.9667,284.76,81,100,2.48,AU,1679759617
448,biltine,14.5333,20.9167,307.47,13,60,5.53,TD,1679759618
449,richards bay,-28.783,32.0377,299.03,74,71,7.37,ZA,1679759618
450,ryotsu,38.0833,138.4333,280.05,76,57,3.79,JP,1679759620
451,san pedro,14.35,121.0167,301.68,77,20,4.63,PH,1679759620
452,margate,51.3813,1.3862,286.87,58,27,1.34,GB,1679759621
453,manbij,36.5281,37.9549,284.92,82,99,8.6,SY,1679759621
454,ikwiriri,-7.9562,38.9716,297.95,88,100,1.97,TZ,1679759621
455,huntsville,34.7304,-86.5861,295.56,69,0,4.92,US,1679759280
456,agadez,19.75,10.25,300.72,8,1,5.86,NE,1679759622
457,shreveport,32.5251,-93.7502,294.9,56,0,3.6,US,1679759622
458,kijang,35.2442,129.2139,284.0,70,100,3.67,KR,1679759622
459,misratah,32.3754,15.0925,293.5,50,0,6.75,LY,1679759623
460,san cristobal,7.7669,-72.225,291.25,33,86,3.15,VE,1679759623
461,creston,41.0586,-94.3614,279.45,70,100,0.0,US,1679759623
462,ciudad del maiz,22.4,-99.6,300.43,38,9,0.25,MX,1679759624
463,lapua,62.9693,23.0088,269.88,88,100,2.75,FI,1679759624
464,dodge city,37.7528,-100.0171,281.6,91,52,2.68,US,1679759624
465,gravdal,68.1214,13.5031,272.44,55,100,8.24,NO,1679759625
466,chernyshevskiy,63.0128,112.4714,265.5,93,94,3.86,RU,1679759625
467,rawson,-43.3002,-65.1023,288.81,43,0,5.4,AR,1679759455
468,abyek,36.0667,50.55,288.93,48,43,2.36,IR,1679759626
469,torzhok,57.0436,34.9622,277.79,87,98,3.23,RU,1679759626
470,bull savanna,17.8868,-77.5902,299.87,59,0,4.77,JM,1679759626
471,ilulissat,69.2167,-51.1,263.16,52,75,4.12,GL,1679759627
472,canala,-21.5333,165.95,297.7,88,100,1.68,NC,1679759627
473,lahad datu,5.0268,118.327,298.17,90,67,0.56,MY,1679759627
474,ullapool,57.8987,-5.1604,280.09,72,100,5.57,GB,1679759628
475,metro,-5.1131,105.3067,296.82,94,100,1.31,ID,1679759628
476,manoel urbano,-8.8389,-69.2597,300.73,67,100,1.11,BR,1679759628
477,sobolevo,54.4299,31.8996,281.01,75,100,1.73,RU,1679759629
478,ikom,5.9667,8.7063,304.75,55,74,2.03,NG,1679759629
479,ladario,-19.0047,-57.6017,304.31,66,20,2.57,BR,1679759629
480,akyab,20.15,92.9,299.23,71,0,6.13,MM,1679759630
481,callaway,30.153,-85.5699,298.66,89,75,5.14,US,1679759630
482,sakakah,29.9697,40.2064,293.91,37,98,3.79,SA,1679759630
483,geraldton,-28.7667,114.6,292.38,82,75,0.0,AU,1679759631
484,capula,19.7,-101.8,293.21,23,38,0.61,MX,1679759631
485,shasta lake,40.6804,-122.3708,279.71,49,76,1.87,US,1679759631
486,pathein,16.7833,94.7333,297.91,74,5,4.46,MM,1679759632
487,tomatlan,19.9333,-105.25,300.22,30,100,1.54,MX,1679759632
488,megion,61.0296,76.1136,276.16,100,100,4.62,RU,1679759632
489,ofaqim,31.3141,34.6203,292.43,83,90,7.78,IL,1679759633
490,hanna,51.6334,-111.9018,269.05,94,100,1.58,CA,1679759402
491,hirara,24.8,125.2833,295.07,94,75,6.17,JP,1679759633
492,batagay,67.6333,134.6333,255.1,99,100,0.68,RU,1679759634
493,arles,43.6768,4.6303,294.59,42,0,3.6,FR,1679759634
494,rudnogorsk,57.2639,103.7519,262.35,99,91,1.65,RU,1679759634
495,san juan del sur,11.2529,-85.8705,301.27,69,40,3.09,NI,1679759635
496,angoche,-16.2325,39.9086,299.08,84,84,4.63,MZ,1679759635
497,yumen,40.2833,97.2,279.24,19,0,2.23,CN,1679759635
498,harboore,56.6175,8.1807,279.9,96,96,5.28,DK,1679759636
499,kurchum,48.5722,83.6542,271.73,70,68,1.52,KZ,1679759636
500,tazovskiy,67.4667,78.7,255.25,100,93,2.77,RU,1679759636
501,los llanos de aridane,28.6585,-17.9182,294.01,73,0,5.14,ES,1679759637
502,kelo,9.3086,15.8066,304.91,28,99,1.61,TD,1679759637
503,san luis,-33.295,-66.3356,299.07,50,1,4.12,AR,1679759637
504,seoul,37.5683,126.9778,284.81,64,0,1.54,KR,1679759300
505,meulaboh,4.1363,96.1285,298.57,85,100,1.9,ID,1679759638
506,tottenham,-32.2333,147.35,293.49,69,100,6.15,AU,1679759638
507,hastings,50.8552,0.5729,286.42,82,81,10.5,GB,1679759638
508,faya,18.3851,42.4509,293.44,30,80,1.82,SA,1679759639
509,kandi,11.1342,2.9386,311.59,15,84,1.71,BJ,1679759639
510,san vicente,-26.6167,-54.1333,304.33,38,66,2.98,AR,1679759640
511,jadu,31.953,12.0261,296.06,20,13,5.57,LY,1679759640
512,zelenogorskiy,55.0333,87.0,269.66,92,64,2.77,RU,1679759640
513,tongliao,43.6125,122.2653,269.44,33,3,3.33,CN,1679759641
514,loa janan,-0.583,117.095,296.5,98,99,0.17,ID,1679759641
515,kaeo,-35.1,173.7833,286.24,89,5,1.17,NZ,1679759642
516,mazagao,-0.115,-51.2894,305.18,68,96,0.76,BR,1679759642
517,winneba,5.3511,-0.6231,302.68,64,100,4.36,GH,1679759643
518,saint-georges,12.0564,-61.7485,301.97,70,20,8.23,GD,1679759644
519,te anau,-45.4167,167.7167,280.83,90,68,1.15,NZ,1679759645
520,jaciara,-15.9653,-54.9683,302.71,62,13,2.26,BR,1679759645
521,tessalit,20.1986,1.0114,307.74,8,1,5.34,ML,1679759646
522,bulancak,40.9372,38.2291,283.05,87,75,3.09,TR,1679759646
523,esna,25.2934,32.554,298.16,42,1,9.54,EG,1679759647
524,itoman,26.1247,127.6694,292.16,100,100,4.12,JP,1679759647
525,guadalajara,20.6667,-103.3333,293.02,28,20,0.0,MX,1679759412
526,formosa do rio preto,-11.0483,-45.1931,305.2,39,99,2.48,BR,1679759648
527,batticaloa,7.7102,81.6924,299.93,80,62,3.1,LK,1679759648
528,camana,-16.6228,-72.7111,298.51,69,86,3.16,PE,1679759649
529,santa cruz,-17.8,-63.1667,303.18,66,75,6.17,BO,1679759649
530,nogales,31.3086,-110.9422,283.39,56,0,0.0,MX,1679759650
531,port hedland,-20.3167,118.5667,301.18,94,87,0.0,AU,1679759651
532,praia,14.9215,-23.5087,298.45,53,40,7.72,CV,1679759651
533,kasulu,-4.5767,30.1025,292.58,91,82,0.68,TZ,1679759651
534,nicoya,10.1483,-85.452,304.78,43,19,2.52,CR,1679759652
535,leningradskiy,69.3833,178.4167,254.14,94,100,5.72,RU,1679759653
536,erzin,36.9559,36.2,287.54,82,100,2.31,TR,1679759653
537,launceston,-41.45,147.1667,283.49,89,40,1.54,AU,1679759355
538,trairi,-3.2778,-39.2689,301.45,74,67,2.35,BR,1679759425
539,peterhead,57.5058,-1.7981,280.37,61,98,5.75,GB,1679759654
540,tautira,-17.7333,-149.15,299.96,77,93,3.3,PF,1679759654
541,virginia beach,36.8529,-75.978,298.18,71,40,6.69,US,1679759530
542,kungurtug,50.5994,97.5228,262.05,94,39,0.84,RU,1679759655
543,orcopampa,-15.2661,-72.3417,284.06,71,99,1.87,PE,1679759655
544,matara,5.9485,80.5353,299.66,78,34,1.19,LK,1679759656
545,mantua,45.1667,10.7833,294.81,29,12,5.72,IT,1679759656
546,pochutla,15.7432,-96.4661,302.49,45,2,3.58,MX,1679759656
547,alamosa,37.4695,-105.87,268.14,20,0,8.23,US,1679759657
548,cascas,-7.4833,-78.8167,296.81,56,32,3.87,PE,1679759658
549,bosconia,9.9689,-73.8836,308.51,26,21,3.89,CO,1679759659
550,joshimath,30.5667,79.5667,282.5,95,99,0.94,IN,1679759659
551,kropotkin,45.4375,40.5756,288.22,62,98,2.88,RU,1679759659
552,cabedelo,-6.9811,-34.8339,303.52,68,34,4.39,BR,1679759660
553,morant bay,17.8815,-76.4093,303.54,63,6,5.15,JM,1679759661
554,tucuman,-26.8241,-65.2226,298.15,83,100,1.54,AR,1679759661
555,kazachinskoye,57.6953,93.2761,273.75,97,100,4.33,RU,1679759662
556,wangqing,43.3218,129.7634,273.39,43,97,1.04,CN,1679759662
557,ojinaga,29.5667,-104.4167,290.69,33,0,2.06,MX,1679759663
558,naryan-mar,67.6713,53.087,265.07,96,100,4.46,RU,1679759664
559,lulea,65.5842,22.1547,270.19,39,0,3.09,SE,1679759664
560,deputatskiy,69.3,139.9,254.57,96,100,1.67,RU,1679759665
561,lere,10.387,8.5726,307.62,16,66,2.11,NG,1679759666
562,yarmouth,41.7057,-70.2286,279.24,73,75,3.6,US,1679759666
563,hals,56.9961,10.3081,282.04,85,100,4.86,DK,1679759667
564,tortoli,39.9256,9.6572,297.05,29,0,4.12,IT,1679759667
565,salur,18.5333,83.2167,300.58,66,78,1.02,IN,1679759668
566,belaya gora,68.5333,146.4167,240.3,100,35,0.53,RU,1679759668
567,santa rosa,14.3122,121.1114,302.1,86,0,3.7,PH,1679759669
568,odienne,9.51,-7.5692,310.22,22,97,0.81,CI,1679759669
569,estrela,-28.0611,-50.9383,298.62,66,100,3.5,BR,1679759531
570,padang,-0.9492,100.3543,298.18,86,100,2.04,ID,1679759564
571,acapulco,16.8634,-99.8901,300.36,61,48,1.16,MX,1679759604
572,cockburn town,21.4612,-71.1419,298.13,65,40,7.2,TC,1679759672
573,mojo,8.6,39.1167,294.89,56,97,5.38,ET,1679759672
574,bar-le-duc,48.75,5.1667,286.05,80,80,8.15,FR,1679759673
575,kongoussi,13.3258,-1.5347,311.6,5,29,1.15,BF,1679759673
576,burriana,39.889,-0.085,296.46,70,22,1.34,ES,1679759673
577,san quintin,30.4833,-115.95,286.42,69,0,6.35,MX,1679759674
578,ambon,-3.6954,128.1814,299.23,89,40,3.09,ID,1679759674
579,gondar,12.6,37.4667,295.9,19,100,4.38,ET,1679759675
580,kirakira,-10.4544,161.9205,298.88,81,58,1.58,SB,1679759675
581,chanute,37.6792,-95.4572,283.96,87,0,2.06,US,1679759516
582,kisesa,-3.0833,34.15,293.82,80,87,1.67,TZ,1679759676
